,City,Lat,lng,Max Temp,Humidity,Cloudiness,Wind Speed,Country,Date
0,qaqortoq,60.7167,-46.0333,268.15,80,75,2.06,GL,1615437218
1,barrow,71.2906,-156.7887,250.15,70,20,5.66,US,1615437219
2,geraldton,-28.7667,114.6,303.15,54,31,6.69,AU,1615437219
3,rikitea,-23.1203,-134.9692,299.4,75,47,8.58,PF,1615437219
4,itaueira,-7.6033,-43.0256,295.47,87,34,1.14,BR,1615437219
5,busselton,-33.65,115.3333,296.48,81,100,0.89,AU,1615437220
6,souillac,-20.5167,57.5167,300.15,74,40,5.66,MU,1615437220
7,bealanana,-14.55,48.7333,294.05,82,10,1.13,MG,1615437220
8,upernavik,72.7868,-56.1549,259.57,82,79,1.7,GL,1615437221
9,cayenne,4.9333,-52.3333,299.82,89,75,1.03,GF,1615437221
10,padang,-0.9492,100.3543,303.15,70,20,2.57,ID,1615437221
11,pitiquito,30.7,-112.0833,285.93,25,0,0.45,MX,1615437222
12,arraial do cabo,-22.9661,-42.0278,296.86,87,100,2.93,BR,1615437222
13,rio bueno,-40.3167,-72.9667,281.15,93,75,1.03,CL,1615437222
14,punta arenas,-53.15,-70.9167,281.15,66,75,15.43,CL,1615437182
15,puebloviejo,10.9938,-74.2844,301.15,61,75,5.14,CO,1615437223
16,kruisfontein,-34.0033,24.7314,290.37,94,100,0.89,ZA,1615437223
17,srivardhan,18.0333,73.0167,304.13,36,0,1.46,IN,1615437224
18,port alfred,-33.5906,26.891,292.04,94,61,1.34,ZA,1615437224
19,acarau,-2.8856,-40.12,298.4,87,97,4.27,BR,1615437224
20,sao raimundo nonato,-9.0153,-42.6994,294.9,81,19,0.94,BR,1615437224
21,fenoarivo,-18.933,47.4354,291.15,88,75,3.09,MG,1615437225
22,zyryanka,65.75,150.85,259.78,91,2,4.31,RU,1615437225
23,adre,13.4667,22.2,293.5,21,1,4.98,TD,1615437225
24,bambous virieux,-20.3428,57.7575,301.48,74,40,5.66,MU,1615436928
25,coihaique,-45.5752,-72.0662,279.01,85,89,4.88,CL,1615437226
26,henties bay,-22.116,14.2845,288.71,95,0,1.34,NA,1615437226
27,hobart,-42.8794,147.3294,296.48,56,75,6.69,AU,1615437226
28,konevo,62.1215,39.3192,255.08,93,7,2.26,RU,1615437227
29,batagay,67.6333,134.6333,257.49,85,96,2.08,RU,1615437227
30,chokurdakh,70.6333,147.9167,249.49,88,97,4.7,RU,1615437227
31,vostok,46.4856,135.8833,272.07,97,2,2.55,RU,1615437228
32,yellowknife,62.456,-114.3525,249.26,77,20,2.06,CA,1615436762
33,tiksi,71.6872,128.8694,245.9,84,23,11.79,RU,1615437228
34,ukiah,39.1502,-123.2078,277.15,93,90,1.54,US,1615437228
35,saint george,37.1041,-113.5841,280.37,56,75,2.57,US,1615437073
36,bathsheba,13.2167,-59.5167,298.15,65,40,7.72,BB,1615436935
37,juli,-16.2167,-69.45,276.67,87,5,1.69,PE,1615437229
38,nanortalik,60.1432,-45.2371,268.78,94,95,8.14,GL,1615437229
39,rimouski,48.4488,-68.524,280.15,52,100,7.2,CA,1615437062
40,bluff,-46.6,168.3333,287.59,64,10,3.13,NZ,1615437230
41,ponta delgada,37.7333,-25.6667,288.15,94,75,5.66,PT,1615437230
42,cape town,-33.9258,18.4232,292.04,88,20,1.54,ZA,1615436463
43,mataura,-46.1927,168.8643,287.59,64,26,3.13,NZ,1615437230
44,kapaa,22.0752,-159.319,296.15,94,90,3.09,US,1615437231
45,iqaluit,63.7506,-68.5145,246.15,69,75,3.6,CA,1615436941
46,bestobe,52.4994,73.0975,264.45,93,42,8.3,KZ,1615437231
47,vila velha,-20.3297,-40.2925,296.15,94,90,2.57,BR,1615437232
48,poum,-20.2333,164.0167,299.81,67,53,3.56,NC,1615437232
49,nosy varika,-20.5833,48.5333,298.4,83,7,1.5,MG,1615437232
50,dikson,73.5069,80.5464,250.02,90,100,9.57,RU,1615437233
51,leningradskiy,69.3833,178.4167,247.52,76,0,2.23,RU,1615437233
52,port lincoln,-34.7333,135.8667,295.04,63,89,3.72,AU,1615437233
53,lufilufi,-13.8745,-171.5986,302.15,84,75,2.57,WS,1615437234
54,saskylakh,71.9167,114.0833,247.99,84,100,9.49,RU,1615437234
55,ushuaia,-54.8,-68.3,280.15,76,75,9.26,AR,1615437044
56,sitka,57.0531,-135.33,276.15,75,90,5.14,US,1615437234
57,tasiilaq,65.6145,-37.6368,262.15,73,37,2.57,GL,1615437235
58,turtas,58.9417,69.1325,255.02,92,100,3.99,RU,1615437235
59,vaini,-21.2,-175.2,301.15,65,20,3.6,TO,1615437235
60,kaitangata,-46.2817,169.8464,287.59,64,54,0.89,NZ,1615437236
61,puerto ayora,-0.7393,-90.3518,297.04,98,97,2.12,EC,1615437236
62,stornoway,58.2093,-6.3865,278.15,81,75,7.2,GB,1615437236
63,albany,42.6001,-73.9662,279.26,70,75,6.17,US,1615437237
64,yeppoon,-23.1333,150.7333,303.15,51,75,4.63,AU,1615437237
65,kedgwick,47.6446,-67.3434,272.72,97,89,5.34,CA,1615437238
66,east london,-33.0153,27.9116,294.73,80,12,5.48,ZA,1615437238
67,san policarpo,12.1791,125.5072,298.32,89,100,10.49,PH,1615437239
68,kaeo,-35.1,173.7833,296.48,76,1,0.45,NZ,1615437239
69,inhambane,-23.865,35.3833,299.15,89,20,2.06,MZ,1615437239
70,torbay,47.6666,-52.7314,270.93,86,1,2.57,CA,1615437239
71,thompson,55.7435,-97.8558,257.15,78,90,5.66,CA,1615437240
72,oranjemund,-28.55,16.4333,292.95,79,74,1.06,NA,1615437240
73,avarua,-21.2078,-159.775,300.15,83,20,2.06,CK,1615437240
74,nesna,66.1967,13.0213,273.15,55,40,9.77,NO,1615437241
75,dingle,10.9995,122.6711,301.26,73,64,8.05,PH,1615436944
76,jamestown,42.097,-79.2353,287.15,30,90,6.56,US,1615437241
77,yerbogachen,61.2767,108.0108,264.12,95,98,2.8,RU,1615437241
78,longyearbyen,78.2186,15.6401,268.15,93,90,1.54,SJ,1615437242
79,svetlyy,54.675,20.1347,269.26,74,0,3.0,RU,1615437242
80,citta di castello,43.4691,12.2305,277.15,33,0,2.06,IT,1615437242
81,russell,32.3502,-85.1999,288.15,87,1,1.86,US,1615437243
82,atuona,-9.8,-139.0333,299.61,66,88,6.54,PF,1615437243
83,omis,43.4447,16.6886,278.15,42,0,3.6,HR,1615437243
84,robertsport,6.7533,-11.3686,299.78,88,90,2.73,LR,1615437244
85,cockburn town,21.4612,-71.1419,297.15,73,75,6.69,TC,1615437244
86,airai,-8.9266,125.4092,293.87,100,78,0.29,TL,1615437244
87,viedma,-40.8135,-62.9967,291.69,36,89,7.39,AR,1615437024
88,ribeira grande,38.5167,-28.7,287.72,83,100,7.05,PT,1615437245
89,cabo san lucas,22.8909,-109.9124,293.15,68,96,1.34,MX,1615437245
90,georgetown,5.4112,100.3354,306.15,49,20,2.57,MY,1615436952
91,cherskiy,68.75,161.3,255.13,85,98,7.69,RU,1615437245
92,sorland,67.667,12.6934,271.02,94,100,11.28,NO,1615436984
93,srednekolymsk,67.45,153.6833,256.8,89,43,3.86,RU,1615437246
94,ponta do sol,32.6667,-17.1,285.93,71,30,0.89,PT,1615437246
95,qaanaaq,77.484,-69.3632,258.09,78,0,2.25,GL,1615437247
96,upata,8.0086,-62.3989,294.11,89,86,2.04,VE,1615437247
97,hermanus,-34.4187,19.2345,287.59,95,85,2.38,ZA,1615437247
98,magadan,59.5667,150.8,258.57,91,70,0.8,RU,1615437247
99,rio linda,38.691,-121.4486,279.15,87,90,3.09,US,1615437248
100,barranca,-10.75,-77.7667,294.79,76,79,1.77,PE,1615437083
101,burnie,-41.0667,145.9167,294.82,52,23,2.24,AU,1615437248
102,tuktoyaktuk,69.4541,-133.0374,259.15,92,90,7.2,CA,1615437249
103,sao joao da barra,-21.6403,-41.0511,296.07,92,99,4.42,BR,1615437249
104,atocha,-20.9333,-66.2333,280.73,64,75,0.53,BO,1615437249
105,roald,62.5833,6.1333,278.15,65,75,8.23,NO,1615437250
106,mae sai,20.4335,99.8762,297.15,69,1,2.06,TH,1615437245
107,jarva-jaani,59.0386,25.8864,262.64,96,97,4.04,EE,1615437250
108,lompoc,34.6391,-120.4579,280.15,81,90,1.54,US,1615437250
109,okha,53.5739,142.9478,268.54,96,99,5.47,RU,1615437251
110,talaya,61.3833,152.75,261.98,87,14,1.97,RU,1615437251
111,kushima,31.4583,131.2333,292.15,52,75,5.14,JP,1615437251
112,alofi,-19.0595,-169.9187,301.15,57,77,4.12,NU,1615437252
113,ilulissat,69.2167,-51.1,264.15,73,90,1.48,GL,1615437252
114,thunder bay,48.4001,-89.3168,270.15,93,90,4.12,CA,1615437161
115,aykhal,66.0,111.5,252.47,84,0,9.73,RU,1615437252
116,la guaira,10.599,-66.9346,297.15,88,20,3.9,VE,1615437253
117,satipo,-11.2522,-74.6386,293.96,79,88,0.76,PE,1615437253
118,hobyo,5.3505,48.5268,300.53,71,66,7.47,SO,1615437253
119,valdivia,-39.8142,-73.2459,280.15,100,5,0.3,CL,1615437133
120,hithadhoo,-0.6,73.0833,300.21,75,94,3.07,MV,1615437254
121,new norfolk,-42.7826,147.0587,297.04,29,54,0.45,AU,1615437254
122,columbia,34.0007,-81.0348,288.15,54,1,3.0,US,1615437254
123,norman wells,65.282,-126.8329,262.15,67,75,5.66,CA,1615437255
124,tiruchchendur,8.4833,78.1167,304.15,51,40,3.09,IN,1615437255
125,bethel,41.3712,-73.414,279.15,70,90,1.28,US,1615437255
126,ostrovnoy,68.0531,39.5131,255.8,85,49,6.69,RU,1615437256
127,hasaki,35.7333,140.8333,289.26,44,20,4.63,JP,1615437256
128,bismarck,46.8083,-100.7837,274.15,40,1,3.09,US,1615437004
129,capinopolis,-18.6819,-49.5697,293.33,95,98,1.44,BR,1615437257
130,te anau,-45.4167,167.7167,290.3,50,0,1.26,NZ,1615437257
131,bayan,46.0833,127.4,273.08,99,6,2.47,CN,1615437257
132,parfenyevo,58.484,43.4088,257.75,93,53,4.48,RU,1615437257
133,georgiyevka,43.0369,74.7114,274.15,93,90,4.0,KZ,1615437258
134,honningsvag,70.9821,25.9704,265.15,73,20,12.35,NO,1615437258
135,mamallapuram,12.6264,80.1722,302.15,65,40,2.06,IN,1615437258
136,kahului,20.8947,-156.47,296.15,88,20,2.57,US,1615437259
137,mafeteng,-29.823,27.2374,287.19,52,0,1.14,LS,1615437259
138,provideniya,64.3833,-173.3,251.15,77,0,1.0,RU,1615437259
139,bredasdorp,-34.5322,20.0403,287.59,95,76,0.93,ZA,1615437260
140,hilo,19.7297,-155.09,297.15,83,90,2.57,US,1615437260
141,khandyga,62.6667,135.6,260.87,92,100,3.3,RU,1615437260
142,vardo,70.3705,31.1107,262.15,73,20,12.35,NO,1615437261
143,bay roberts,47.5999,-53.2648,270.37,91,9,0.89,CA,1615437261
144,isangel,-19.55,169.2667,304.15,55,20,4.12,VU,1615437261
145,taybad,34.74,60.7756,281.45,54,0,3.83,IR,1615437009
146,tautira,-17.7333,-149.15,303.71,74,40,4.12,PF,1615437262
147,nieves,15.3274,120.9485,305.15,48,75,3.09,PH,1615437262
148,klaksvik,62.2266,-6.589,276.15,87,75,2.57,FO,1615437262
149,ahipara,-35.1667,173.1667,292.8,74,26,4.85,NZ,1615437263
150,pemba,-12.974,40.5178,297.15,94,75,2.06,MZ,1615437263
151,sterling,39.0062,-77.4286,287.15,35,75,3.09,US,1615436892
152,duku,11.2361,4.9073,300.14,43,85,2.86,NG,1615437263
153,alta floresta,-9.8756,-56.0861,293.66,98,98,0.72,BR,1615437264
154,sur,22.5667,59.5289,303.18,29,0,0.08,OM,1615437264
155,sydney,-33.8679,151.2073,298.15,61,75,8.75,AU,1615437064
156,pevek,69.7008,170.3133,246.74,79,0,7.63,RU,1615437265
157,tigil,57.8,158.6667,271.3,95,85,1.8,RU,1615437192
158,karlstad,59.3793,13.5036,271.15,100,20,7.72,SE,1615437265
159,kyabram,-36.3167,145.05,299.82,40,95,3.81,AU,1615437265
160,lakatoro,-16.0999,167.4164,301.15,71,17,4.26,VU,1615437266
161,trencin,48.8333,18.25,270.37,86,22,1.03,SK,1615437266
162,tongchuan,35.0806,109.0897,285.45,52,13,2.4,CN,1615437266
163,tuatapere,-46.1333,167.6833,287.59,64,3,3.13,NZ,1615437267
164,fort nelson,58.8053,-122.7002,265.15,53,40,1.03,CA,1615436967
165,muli,2.9167,73.5667,301.65,64,0,1.47,MV,1615437267
166,mar del plata,-38.0023,-57.5575,293.15,88,0,2.57,AR,1615437268
167,volchikha,52.0333,80.3833,267.9,94,63,6.06,RU,1615437268
168,flinders,-34.5833,150.8552,298.71,69,55,2.24,AU,1615437268
169,tacoronte,28.4769,-16.4102,290.37,82,90,3.09,ES,1615437269
170,praya,14.9215,-23.5087,292.15,72,20,10.8,CV,1615437262
171,chuy,-33.6971,-53.4616,289.88,86,0,0.45,UY,1615437269
172,sumenep,-7.0167,113.8667,301.48,75,100,4.68,ID,1615437269
173,pedernales,18.0384,-71.744,297.87,67,11,2.03,DO,1615437270
174,norsup,-16.0667,167.3833,301.1,71,15,4.39,VU,1615437270
175,ambovombe,-25.1667,46.0833,299.34,68,0,1.83,MG,1615437270
176,butaritari,3.0707,172.7902,300.8,76,57,4.19,KI,1615437271
177,comodoro rivadavia,-45.8667,-67.5,285.15,40,0,11.32,AR,1615437156
178,ust-nera,64.5667,143.2,257.14,82,100,3.85,RU,1615437271
179,victoria,22.2855,114.1577,295.93,78,79,2.24,HK,1615437052
180,nemuro,43.3236,145.575,277.15,35,40,6.69,JP,1615437272
181,bengkulu,-3.8004,102.2655,302.65,66,19,3.92,ID,1615437272
182,ola,59.5833,151.2833,259.18,90,57,0.16,RU,1615437192
183,codrington,-38.2667,141.9667,294.09,60,10,5.12,AU,1615437272
184,kailua,21.4022,-157.7394,295.15,94,90,4.12,US,1615437273
185,banda aceh,5.5577,95.3222,303.86,60,35,5.97,ID,1615437273
186,laguna,38.421,-121.4238,280.37,81,90,1.54,US,1615437213
187,castro,-24.7911,-50.0119,287.08,91,0,0.84,BR,1615437273
188,salalah,17.0151,54.0924,297.15,46,0,1.03,OM,1615437245
189,praia da vitoria,38.7333,-27.0667,287.04,100,90,4.88,PT,1615437274
190,yulara,-25.2406,130.9889,307.15,38,15,6.17,AU,1615437274
191,cacu,-18.5567,-51.1308,293.79,87,100,1.8,BR,1615437274
192,grindavik,63.8424,-22.4338,270.15,74,75,18.01,IS,1615437001
193,santiago del estero,-27.7951,-64.2615,297.8,48,6,3.94,AR,1615437275
194,shirokiy,49.758,129.523,270.77,98,1,3.3,RU,1615437275
195,jinchang,38.4953,102.1739,289.02,24,0,4.15,CN,1615437275
196,chumikan,54.7183,135.315,267.59,92,91,7.18,RU,1615437276
197,bandarbeyla,9.4942,50.8122,299.18,70,40,4.83,SO,1615437276
198,aksarka,66.5606,67.7975,241.94,86,3,3.04,RU,1615437276
199,mayor pablo lagerenza,-19.9309,-60.7718,299.21,48,28,1.8,PY,1615437277
200,jibuti,11.5,42.5,298.15,78,1,8.19,DJ,1615437277
201,mozarlandia,-14.7447,-50.5706,294.75,90,100,0.21,BR,1615437277
202,lavrentiya,65.5833,-171.0,245.12,78,0,2.58,RU,1615437278
203,mahajanga,-15.7167,46.3167,298.15,94,20,1.54,MG,1615437278
204,lasa,46.6166,10.7002,275.37,80,0,1.12,IT,1615436999
205,yuksekova,37.5736,44.2872,276.15,93,90,8.75,TR,1615437278
206,mahebourg,-20.4081,57.7,300.15,74,40,5.66,MU,1615437279
207,makat,47.6469,53.3463,264.22,82,87,5.51,KZ,1615437279
208,kabare,-2.4683,28.8242,288.94,83,0,1.02,CD,1615437279
209,la union,-5.4,-80.75,300.5,53,16,5.22,PE,1615437280
210,mokhsogollokh,61.4681,128.9203,261.03,90,92,4.51,RU,1615437280
211,komsomolskiy,40.4272,71.7189,281.15,76,75,5.14,UZ,1615437280
212,lorengau,-2.0226,147.2712,302.63,62,100,3.6,PG,1615437281
213,diu,20.7141,70.9822,302.27,30,0,1.43,IN,1615437281
214,semnan,35.5729,53.3971,282.6,48,19,1.52,IR,1615437281
215,esperance,-33.8667,121.9,300.15,50,100,6.17,AU,1615437282
216,ternate,0.8,127.4,302.14,71,39,2.96,ID,1615436985
217,san patricio,28.017,-97.5169,296.15,88,90,9.26,US,1615437282
218,phan thiet,10.9333,108.1,305.2,47,7,8.45,VN,1615437282
219,angoche,-16.2325,39.9086,298.44,88,100,2.27,MZ,1615437283
220,coquimbo,-29.9533,-71.3436,289.15,94,0,1.03,CL,1615437283
221,punta alta,-38.8759,-62.0736,296.38,39,65,6.65,AR,1615437283
222,riyadh,24.6877,46.7219,292.15,16,40,3.09,SA,1615437284
223,lulea,65.5842,22.1547,263.15,85,90,6.69,SE,1615437284
224,hami,42.8,93.45,289.19,28,54,2.45,CN,1615437284
225,mweka,-4.85,21.5667,293.43,92,69,0.92,CD,1615437285
226,faya,18.3851,42.4509,289.15,35,0,1.6,SA,1615437285
227,wakkanai,45.4094,141.6739,276.15,65,20,8.23,JP,1615437285
228,mogadishu,2.0371,45.3438,299.15,69,75,3.09,SO,1615437286
229,ayan,56.45,138.1667,267.97,85,92,4.31,RU,1615437286
230,svetlogorsk,52.6333,29.7333,265.41,95,77,2.93,BY,1615437286
231,husavik,66.0449,-17.3389,272.15,93,90,9.77,IS,1615437287
232,palu,-0.8917,119.8707,302.48,67,100,2.24,ID,1615437287
233,lykhivka,48.6874,33.9228,269.4,83,86,3.97,UA,1615437287
234,jiaozuo,35.2397,113.2331,289.32,52,26,2.96,CN,1615437288
235,zyryanovsk,49.7386,84.2719,273.33,98,100,0.12,KZ,1615437288
236,talcahuano,-36.7167,-73.1167,288.15,100,90,2.57,CL,1615437288
237,petersburg,37.2279,-77.4019,284.26,53,1,2.84,US,1615437289
238,erenhot,43.6475,111.9767,277.66,68,0,4.31,CN,1615437289
239,guerrero negro,27.9769,-114.0611,286.56,75,20,5.13,MX,1615437289
240,talnakh,69.4865,88.3972,241.45,84,98,3.38,RU,1615437289
241,acapulco,16.8634,-99.8901,297.05,72,0,2.01,MX,1615437290
242,santa lucia,27.9117,-15.5407,290.15,67,40,8.23,ES,1615437290
243,latung,5.5,120.8833,299.71,85,100,6.36,PH,1615437290
244,conil,44.9673,3.7177,274.59,100,100,2.48,FR,1615437291
245,chapais,49.7834,-74.8492,276.15,93,90,4.63,CA,1615437291
246,mosquera,4.7059,-74.2302,286.15,88,40,1.54,CO,1615437256
247,buchanan,5.8808,-10.0467,298.15,94,40,2.26,LR,1615437291
248,traverse city,44.7631,-85.6206,289.15,72,90,6.17,US,1615437165
249,ancud,-41.8697,-73.8203,282.59,100,20,2.06,CL,1615437292
250,vao,-22.6667,167.4833,298.36,72,13,7.49,NC,1615437292
251,puro,12.4841,123.3827,300.06,76,68,8.1,PH,1615437293
252,el dorado,38.7666,-120.5177,275.37,100,90,3.09,US,1615437293
253,zavetnoye,47.1194,43.8903,266.6,81,97,5.17,RU,1615437293
254,dayong,25.0209,118.2898,295.15,60,0,2.0,CN,1615437294
255,narsaq,60.9167,-46.05,268.15,80,75,2.06,GL,1615437294
256,clyde river,70.4692,-68.5914,250.15,77,90,4.63,CA,1615437294
257,tshikapa,-6.4167,20.8,294.15,87,22,1.08,CD,1615437294
258,sladkovo,55.5284,70.3385,262.15,94,100,7.3,RU,1615437295
259,elko,41.0002,-115.5012,274.26,65,100,0.45,US,1615437295
260,nizhnevartovsk,60.9344,76.5531,247.15,76,0,2.0,RU,1615437295
261,labuhan,-6.8844,112.2051,302.35,72,91,4.44,ID,1615437296
262,lujiang,31.2581,117.2817,284.26,100,90,2.0,CN,1615437296
263,chikhli,20.35,76.25,306.57,14,22,6.91,IN,1615437262
264,erzurum,40.0,41.5,273.15,100,75,2.06,TR,1615437081
265,sinnamary,5.3833,-52.95,298.12,87,96,5.38,GF,1615437297
266,nikolskoye,59.7035,30.7861,257.59,65,0,4.0,RU,1615437297
267,kaka,37.3482,59.6143,284.64,48,0,3.93,TM,1615437298
268,roebourne,-20.7833,117.1333,311.57,29,0,4.94,AU,1615437298
269,zelenogorskiy,55.0333,87.0,267.15,63,40,11.0,RU,1615437298
270,shaoyang,27.2315,111.4525,286.06,80,89,0.3,CN,1615437299
271,umm lajj,25.0213,37.2685,300.14,41,0,1.67,SA,1615437026
272,mango,27.9797,-82.3065,291.48,77,1,4.56,US,1615437299
273,vila franca do campo,37.7167,-25.4333,288.15,94,75,5.66,PT,1615437300
274,taltal,-25.4,-70.4833,291.99,80,41,1.36,CL,1615437300
275,yar-sale,66.8333,70.8333,240.71,83,0,3.21,RU,1615437300
276,takoradi,4.8845,-1.7554,299.44,88,45,3.17,GH,1615437300
277,lebu,-37.6167,-73.65,286.15,87,1,1.83,CL,1615437301
278,huari,-9.3333,-77.2333,278.81,86,85,1.34,PE,1615437301
279,itarema,-2.9248,-39.9167,298.62,85,96,4.32,BR,1615437303
280,nouakchott,18.0858,-15.9785,289.15,77,0,5.14,MR,1615437048
281,sagua la grande,22.8067,-80.0756,293.15,83,20,2.57,CU,1615437303
282,fallon,39.4735,-118.7774,274.15,80,90,2.57,US,1615437304
283,killam,52.7834,-111.8518,261.15,79,9,2.06,CA,1615437304
284,port hardy,50.6996,-127.4199,280.15,100,1,1.03,CA,1615437304
285,carnarvon,-24.8667,113.6333,302.15,65,1,4.63,AU,1615437305
286,maraba,-5.3686,-49.1178,295.34,97,100,1.46,BR,1615437305
287,chau doc,10.7,105.1167,307.18,39,94,3.04,VN,1615437305
288,maraa,-1.8333,-65.3667,294.41,98,100,0.7,BR,1615437306
289,say,13.1007,2.3689,301.15,14,0,3.6,NE,1615437306
290,whitehorse,60.7161,-135.0538,271.15,59,75,4.12,CA,1615437307
291,barrington,41.7407,-71.3087,276.48,93,40,2.06,US,1615437307
292,vanimo,-2.6741,141.3028,302.6,66,96,4.54,PG,1615437307
293,hamilton,39.1834,-84.5333,290.37,41,20,5.14,US,1615437308
294,bubaque,11.2833,-15.8333,298.84,55,0,5.64,GW,1615437308
295,north bend,43.4065,-124.2243,281.15,81,75,5.66,US,1615437308
296,fairbanks,64.8378,-147.7164,267.15,79,90,5.14,US,1615437251
297,necochea,-38.5473,-58.7368,294.82,68,100,2.24,AR,1615437309
298,parrita,9.5201,-84.3225,295.15,64,0,5.66,CR,1615437309
299,port elizabeth,-33.918,25.5701,290.37,94,99,0.89,ZA,1615437309
300,moron,-34.6534,-58.6198,297.59,73,26,1.79,AR,1615437100
301,hovd,48.0056,91.6419,276.4,56,53,1.68,MN,1615437310
302,clearwater,27.9659,-82.8001,292.15,68,1,4.63,US,1615437310
303,cidreira,-30.1811,-50.2056,292.86,81,29,2.44,BR,1615437310
304,sumbe,-11.2061,13.8437,299.55,84,85,1.46,AO,1615437311
305,ulaanbaatar,47.9077,106.8832,280.15,23,0,5.0,MN,1615437311
306,ugoofaaru,5.6667,73.0,301.53,72,0,3.49,MV,1615437311
307,bemidji,47.4736,-94.8803,271.48,93,90,5.66,US,1615437196
308,vestmannaeyjar,63.4427,-20.2734,273.88,86,21,14.88,IS,1615437312
309,cabedelo,-6.9811,-34.8339,298.15,94,20,2.06,BR,1615437312
310,hofgeismar,51.4833,9.4,279.26,81,100,8.75,DE,1615437312
311,guanica,17.9716,-66.908,295.37,72,3,0.45,PR,1615437313
312,uaua,-9.8414,-39.4817,295.08,89,23,3.76,BR,1615437313
313,caravelas,-17.7125,-39.2481,297.52,81,86,2.49,BR,1615437313
314,nome,64.5011,-165.4064,249.15,58,1,2.06,US,1615437314
315,bosaso,11.2842,49.1816,299.15,83,0,2.06,SO,1615437314
316,plettenberg bay,-34.0527,23.3716,289.73,89,100,2.0,ZA,1615437314
317,saint-philippe,-21.3585,55.7679,301.15,65,73,6.17,RE,1615437315
318,moose jaw,50.4001,-105.5344,270.15,86,79,8.75,CA,1615437315
319,bakel,14.905,-12.4568,294.81,19,42,4.14,SN,1615437315
320,neuquen,-38.9516,-68.0591,291.15,45,0,7.72,AR,1615437020
321,kavaratti,10.5669,72.642,301.6,70,58,3.04,IN,1615437316
322,jamame,0.0722,42.7506,300.33,72,48,5.32,SO,1615437316
323,baft,29.234,56.6057,284.06,40,0,3.35,IR,1615437317
324,nuuk,64.1835,-51.7216,267.15,79,90,1.54,GL,1615437317
325,emba,48.8264,58.1442,255.14,92,100,5.56,KZ,1615437317
326,lubango,-14.9172,13.4925,290.12,69,58,1.23,AO,1615437317
327,ozubulu,5.9567,6.849,297.54,90,100,1.01,NG,1615437318
328,sao jose da coroa grande,-8.8978,-35.1478,298.39,84,23,2.86,BR,1615437318
329,paamiut,61.994,-49.6678,266.79,95,100,4.85,GL,1615437318
330,diego de almagro,-26.3667,-70.05,286.06,90,47,0.49,CL,1615437088
331,kieta,-6.2167,155.6333,301.22,74,97,1.47,PG,1615437319
332,tilichiki,60.4667,166.1,257.58,95,94,3.11,RU,1615437319
333,verkhnyaya inta,65.9811,60.3094,249.34,86,38,2.18,RU,1615437320
334,khani,41.9563,42.9566,282.15,57,75,10.8,GE,1615437320
335,winslow,35.0242,-110.6974,277.15,35,1,3.09,US,1615437320
336,baruun-urt,46.6806,113.2792,273.52,85,67,4.07,MN,1615437321
337,murray bridge,-35.1167,139.2667,299.26,52,5,2.82,AU,1615437321
338,ambon,-3.6954,128.1814,304.15,66,40,4.12,ID,1615437321
339,khash,28.2211,61.2158,290.05,28,0,6.34,IR,1615437322
340,kloulklubed,7.0419,134.2556,304.15,66,75,3.09,PW,1615437322
341,montepuez,-13.1256,38.9997,294.92,96,100,0.73,MZ,1615437322
342,todos santos,23.45,-110.2167,292.04,75,75,0.84,MX,1615437323
343,blackfoot,43.1905,-112.345,273.15,55,1,2.57,US,1615437323
344,la ronge,55.1001,-105.2842,258.15,47,62,2.06,CA,1615437323
345,grafton,42.207,-71.6856,276.15,70,1,5.66,US,1615437290
346,macedo de cavaleiros,41.5382,-6.9611,282.59,74,99,0.45,PT,1615437324
347,czersk,53.7959,17.9765,270.93,73,95,4.47,PL,1615437324
348,namibe,-15.1961,12.1522,296.1,73,100,2.57,AO,1615437324
349,karratha,-20.7377,116.8463,311.2,30,0,3.63,AU,1615437325
350,fukue,32.6881,128.8419,291.15,63,75,4.63,JP,1615437325
351,constitucion,-35.3333,-72.4167,288.6,90,80,2.8,CL,1615437325
352,mezapa,15.5833,-87.65,297.04,91,14,1.34,HN,1615437326
353,vejle,55.7093,9.5357,276.15,100,90,6.69,DK,1615437326
354,ust-tsilma,65.441,52.1498,263.05,96,100,2.85,RU,1615437326
355,yuma,32.7253,-114.6244,287.15,38,20,5.66,US,1615437287
356,orchard homes,46.8633,-114.0484,272.59,80,1,0.48,US,1615437327
357,kavieng,-2.5744,150.7967,302.09,64,48,2.77,PG,1615437327
358,lagoa,39.05,-27.9833,286.61,79,100,6.54,PT,1615437327
359,tura,25.5198,90.2201,304.21,33,0,2.36,IN,1615437328
360,shaunavon,49.6501,-108.4181,267.15,86,96,8.75,CA,1615437328
361,songea,-10.6833,35.65,291.15,94,40,0.71,TZ,1615437328
362,guaruja,-23.9931,-46.2564,298.71,26,20,1.52,BR,1615437329
363,marovoay,-16.1,46.6333,298.15,94,20,1.54,MG,1615437329
364,denpasar,-8.65,115.2167,303.15,79,20,3.09,ID,1615437329
365,mackay,-21.15,149.2,303.15,58,29,5.66,AU,1615437207
366,matara,5.9485,80.5353,300.94,69,99,4.22,LK,1615437330
367,khatanga,71.9667,102.5,247.23,87,100,10.24,RU,1615437330
368,kysyl-syr,63.8986,122.7617,256.84,90,86,4.08,RU,1615437330
369,dunedin,-45.8742,170.5036,286.48,68,70,8.49,NZ,1615437164
370,kamaishi,39.2667,141.8833,283.15,34,20,3.09,JP,1615437331
371,gat,31.61,34.7642,288.71,46,50,2.91,IL,1615437331
372,pisco,-13.7,-76.2167,296.48,83,13,1.03,PE,1615437331
373,muros,42.7762,-9.0603,286.48,86,100,6.71,ES,1615437332
374,tocopilla,-22.092,-70.1979,292.52,68,13,0.46,CL,1615437332
375,tyup,42.7276,78.3648,277.76,68,92,2.19,KG,1615437332
376,fortuna,40.5982,-124.1573,279.82,100,40,3.6,US,1615437333
377,kawasaki,35.5206,139.7172,288.15,44,20,2.57,JP,1615437333
378,broome,42.2506,-75.833,280.15,57,1,4.63,US,1615437333
379,salur,18.5333,83.2167,306.6,27,2,2.73,IN,1615437334
380,fort-shevchenko,44.5086,50.263,270.56,85,99,6.04,KZ,1615437334
381,anqing,30.5092,117.0506,285.18,90,100,1.48,CN,1615437334
382,sao filipe,14.8961,-24.4956,293.44,75,100,5.72,CV,1615437335
383,san quintin,30.4833,-115.95,285.83,71,4,3.42,MX,1615437335
384,manakara,-22.1333,48.0167,298.99,82,22,1.18,MG,1615437335
385,miguel hidalgo,19.4225,-99.2028,293.15,18,1,2.06,MX,1615437336
386,mangrol,21.1167,70.1167,299.25,60,0,2.33,IN,1615437336
387,katsuura,35.1333,140.3,289.26,44,20,2.57,JP,1615437336
388,college,64.8569,-147.8028,267.15,79,90,4.63,US,1615437336
389,eureka,40.8021,-124.1637,279.82,83,87,6.14,US,1615437321
390,dryden,49.7833,-92.7503,268.15,68,90,5.66,CA,1615437229
391,bindura,-17.3019,31.3306,290.37,92,6,1.34,ZW,1615437337
392,abu samrah,35.3029,37.1841,284.66,70,99,2.25,SY,1615437337
393,xuddur,4.1213,43.8894,297.15,60,0,8.28,SO,1615437338
394,west bay,19.3667,-81.4167,297.59,78,19,2.68,KY,1615437338
395,asau,46.4333,26.4,269.26,67,99,0.71,RO,1615437338
396,shimoda,34.6667,138.95,287.15,47,20,5.14,JP,1615437339
397,francistown,-21.17,27.5079,288.15,94,0,1.03,BW,1615437339
398,catuday,16.2923,119.8062,300.98,60,31,4.01,PH,1615437339
399,ust-maya,60.4167,134.5333,262.72,91,100,3.42,RU,1615437197
400,manoel urbano,-8.8389,-69.2597,293.56,97,79,1.17,BR,1615437340
401,izvoarele sucevei,47.75,25.1833,272.04,89,92,0.77,RO,1615437340
402,kumluca,36.3703,30.2869,287.57,60,32,2.0,TR,1615437340
403,luderitz,-26.6481,15.1594,291.78,76,0,4.42,NA,1615437341
404,bilibino,68.0546,166.4372,247.88,79,3,1.21,RU,1615437341
405,jumla,29.2747,82.1838,288.16,29,0,1.77,NP,1615437341
406,umea,63.8284,20.2597,266.15,93,90,8.23,SE,1615437342
407,amapa,1.0,-52.0,294.23,98,100,0.09,BR,1615437342
408,iskateley,67.6803,53.1512,265.66,96,100,5.79,RU,1615437342
409,acajutla,13.5928,-89.8275,298.61,65,21,3.57,SV,1615437342
410,mpika,-11.8343,31.4529,290.43,93,99,0.84,ZM,1615437343
411,portland,45.5234,-122.6762,282.04,68,7,2.51,US,1615437343
412,margate,51.3813,1.3862,283.71,77,83,4.47,GB,1615437343
413,saldanha,-33.0117,17.9442,290.89,84,85,5.87,ZA,1615437344
414,san rafael,-34.6177,-68.3301,295.49,52,47,5.64,AR,1615437344
415,okhotsk,59.3833,143.3,258.76,89,100,1.35,RU,1615437344
416,chunoyar,57.4467,97.3217,273.49,93,100,5.49,RU,1615437345
417,lewiston,44.1003,-70.2148,274.26,93,1,2.06,US,1615437345
418,ekhabi,53.5102,142.9671,268.61,96,100,5.31,RU,1615437345
419,salinas,36.6777,-121.6555,282.04,76,1,1.54,US,1615437346
420,lyantonde,-0.4031,31.1572,291.78,74,15,0.97,UG,1615437346
421,dzerzhinsk,56.2389,43.4631,251.48,77,0,7.0,RU,1615437346
422,enumclaw,47.2043,-121.9915,278.15,85,4,1.4,US,1615437347
423,touros,-5.1989,-35.4608,297.15,94,40,2.06,BR,1615437347
424,zharkent,44.1628,80.0,279.49,78,100,2.39,KZ,1615437347
425,ahuimanu,21.4447,-157.8378,295.15,94,90,4.12,US,1615437348
426,usta muhammad,28.1794,68.0445,302.78,14,0,2.63,PK,1615437348
427,saint-francois,46.4154,3.9054,282.15,61,90,3.09,FR,1615437348
428,beidao,34.5686,105.8933,289.39,38,37,0.66,CN,1615437349
429,dothan,31.2232,-85.3905,287.15,72,1,1.54,US,1615437349
430,edson,53.5835,-116.4356,261.15,61,1,0.66,CA,1615437349
431,luka nad jihlavou,49.374,15.7019,270.93,93,88,4.15,CZ,1615437350
432,port hawkesbury,45.6169,-61.3485,273.15,74,1,3.6,CA,1615437350
433,kodiak,57.79,-152.4072,273.15,47,20,10.8,US,1615437350
434,akyab,20.15,92.9,302.78,36,0,3.53,MM,1615437351
435,darnah,32.767,22.6367,288.0,79,96,8.09,LY,1615437352
436,tombouctou,20.0,-3.0,290.6,28,0,4.26,ML,1615437352
437,samarai,-10.6167,150.6667,302.76,69,100,5.01,PG,1615437352
438,surin,14.8818,103.4936,308.71,43,0,3.16,TH,1615437081
439,madridejos,39.4682,-3.532,279.82,82,67,0.45,ES,1615437353
440,bonnyville,54.2668,-110.735,264.15,48,75,2.06,CA,1615437353
441,hofn,64.2539,-15.2082,275.97,76,74,4.63,IS,1615437354
442,barcelos,41.5388,-8.6151,286.15,94,90,3.6,PT,1615437175
443,kindu,-2.95,25.95,294.25,97,10,1.21,CD,1615437354
444,maicanesti,45.5,27.5,271.27,87,96,3.91,RO,1615437355
445,usinsk,65.9939,57.5281,252.35,92,100,5.03,RU,1615437355
446,sol-iletsk,51.1631,54.9918,255.12,91,79,4.34,RU,1615437355
447,leh,34.1667,77.5833,270.0,70,41,1.46,IN,1615437356
448,wajima,37.4,136.9,284.15,50,0,2.06,JP,1615437356
449,tabou,4.423,-7.3528,298.88,90,95,2.73,CI,1615437357
450,raudeberg,61.9875,5.1352,279.82,63,86,9.73,NO,1615437357
451,lazarev,52.225,141.5131,271.3,92,99,6.58,RU,1615437358
452,pemangkat,1.1667,108.9667,301.77,71,100,4.09,ID,1615437358
453,rockland,41.1668,-74.0496,280.93,82,93,1.07,US,1615437359
454,maningrida,-12.0667,134.2667,304.46,62,74,4.09,AU,1615437359
455,haines junction,60.7522,-137.5108,274.15,44,40,3.09,CA,1615437359
456,okahandja,-21.9833,16.9167,288.15,32,0,0.81,NA,1615437359
457,beian,63.6559,9.5683,275.15,55,0,18.52,NO,1615437360
458,buy,58.4786,41.53,255.29,92,26,2.73,RU,1615437360
459,rabo de peixe,37.8,-25.5833,288.15,94,75,5.66,PT,1615437361
460,dulce grande,23.0,-102.1667,287.61,35,7,3.18,MX,1615437361
461,nizwa,22.9333,57.5333,302.61,14,0,1.14,OM,1615437361
462,payo,-3.7508,103.6372,303.63,62,42,2.33,ID,1615437361
463,camacha,33.0833,-16.3333,288.15,72,75,4.63,PT,1615437362
464,korla,41.7597,86.1469,287.02,35,76,1.5,CN,1615437362
465,rocha,-34.4833,-54.3333,288.38,92,0,1.55,UY,1615437362
466,gilbues,-9.8317,-45.3439,295.87,90,98,2.17,BR,1615437363
467,portmarnock,53.4231,-6.1375,280.37,87,75,14.92,IE,1615437363
468,katherine,-14.4667,132.2667,305.15,55,75,0.51,AU,1615437363
469,osorno,-40.5667,-73.15,281.15,93,75,1.03,CL,1615437364
470,curillo,1.0333,-75.9191,294.89,95,99,0.25,CO,1615437364
471,dunn,44.95,-91.8835,283.71,81,75,6.69,US,1615437364
472,abnub,27.2696,31.1511,288.15,44,0,2.57,EG,1615437365
473,tiznit,29.5833,-9.5,285.49,44,0,2.59,MA,1615437365
474,quatre cocos,-20.2078,57.7625,301.48,74,40,5.66,MU,1615437365
475,nyalikungu,-3.1833,33.7833,291.31,71,22,1.27,TZ,1615437366
476,naze,28.3667,129.4833,296.15,53,20,6.69,JP,1615437366
477,lazaro cardenas,17.9583,-102.2,294.53,85,0,1.84,MX,1615437366
478,inuvik,68.3499,-133.7218,263.15,85,100,2.57,CA,1615437283
479,atikokan,48.7555,-91.6216,269.11,95,100,5.05,CA,1615437367
480,oyama,36.3,139.8,289.26,26,20,3.6,JP,1615437367
481,mandalgovi,45.7625,106.2708,276.72,65,0,3.37,MN,1615437367
482,boa vista,2.8197,-60.6733,300.15,61,0,1.54,BR,1615437368
483,los llanos de aridane,28.6585,-17.9182,291.15,59,75,6.69,ES,1615437368
484,southbridge,42.0751,-72.0334,274.82,88,37,2.78,US,1615437368
485,qinhuangdao,39.9317,119.5883,286.22,54,100,3.79,CN,1615437369
486,camabatela,-8.1881,15.375,290.59,99,75,0.43,AO,1615437369
487,temir,49.1414,57.13,254.99,92,100,5.97,KZ,1615437369
488,touba,8.2833,-7.6833,296.67,87,48,3.24,CI,1615437251
489,bundaberg,-24.85,152.35,301.48,61,100,4.12,AU,1615437370
490,taoudenni,22.6783,-3.9836,290.68,45,0,8.17,ML,1615437370
491,sangar,63.9242,127.4739,257.93,92,100,3.27,RU,1615437370
492,bonavista,48.6499,-53.1147,271.48,86,52,3.6,CA,1615437371
493,sabya,17.1495,42.6254,297.15,78,0,1.75,SA,1615437371
494,kalmar,56.6616,16.3616,275.15,75,100,8.23,SE,1615437371
495,kudahuvadhoo,2.6708,72.8944,301.13,72,1,3.91,MV,1615437372
496,kenai,60.5544,-151.2583,271.15,86,90,2.57,US,1615437205
497,belaya gora,68.5333,146.4167,258.86,92,68,1.49,RU,1615437372
498,paka,4.6374,103.4368,301.15,78,40,3.09,MY,1615437372
499,atar,20.5169,-13.0499,288.76,34,12,4.06,MR,1615437373
500,anahuac,27.2333,-100.15,294.26,65,31,12.03,MX,1615437373
501,zhenlai,45.8495,123.2973,280.15,51,0,4.1,CN,1615437373
502,kedrovyy,56.1667,91.8167,280.15,36,0,8.0,RU,1615437374
503,colac,-38.3333,143.5833,294.82,34,64,2.68,AU,1615437374
504,fort smith,35.3859,-94.3986,294.15,64,1,2.06,US,1615437319
505,maun,-19.9833,23.4167,290.15,100,0,0.81,BW,1615437375
506,palmer,42.1584,-72.3287,276.15,81,40,2.06,US,1615437375
507,schwanewede,53.2333,8.6,279.26,93,75,6.17,DE,1615437375
508,constantine,36.365,6.6147,276.15,93,40,1.03,DZ,1615437375
509,sabha,27.0377,14.4283,290.26,39,100,6.28,LY,1615437376
510,tromso,69.6496,18.957,267.15,58,0,8.75,NO,1615437376
511,rosario,-32.9468,-60.6393,298.15,73,0,1.54,AR,1615437377
512,zheleznodorozhnyy,55.7503,38.0042,255.37,84,0,1.0,RU,1615437377
513,saveh,35.0213,50.3566,286.14,42,80,2.16,IR,1615437377
514,socorro,31.6546,-106.3033,291.15,7,20,7.2,US,1615437206
515,marsh harbour,26.5412,-77.0636,294.48,70,63,10.72,BS,1615437328
516,sabang,5.8933,95.3214,301.34,76,50,8.33,ID,1615437378
517,indianola,41.3581,-93.5574,279.15,61,1,5.14,US,1615437378
518,mount isa,-20.7333,139.5,299.15,69,75,3.09,AU,1615437378
519,chimbote,-9.0853,-78.5783,296.7,71,92,2.45,PE,1615437379
520,lake cowichan,48.825,-124.0546,278.71,81,1,2.06,CA,1615437379
521,sept-iles,50.2001,-66.3821,274.15,86,90,2.57,CA,1615437379
522,edd,13.9297,41.6925,302.57,37,0,7.86,ER,1615437380
523,ratnagiri,16.9833,73.3,304.0,38,0,2.05,IN,1615437380
524,ucluelet,48.9329,-125.5528,277.04,87,0,2.41,CA,1615437207
525,hay river,60.8156,-115.7999,253.15,65,37,2.06,CA,1615437380
526,terrace bay,48.7834,-87.1,268.15,93,100,5.14,CA,1615437381
527,birao,10.2849,22.7882,296.39,20,65,2.63,CF,1615437381
528,morros,-9.4467,-46.3003,295.28,93,100,2.11,BR,1615437381
529,varkkallai,8.7341,76.7067,304.15,66,20,2.06,IN,1615437382
530,faanui,-16.4833,-151.75,301.08,74,73,4.83,PF,1615437382
531,nizhniy kuranakh,58.8353,125.4869,266.43,91,100,5.43,RU,1615437382
532,marabba,12.35,32.1833,300.32,16,9,1.53,SD,1615437383
533,lafayette,30.2335,-92.0668,294.15,73,40,2.06,US,1615436662
534,tevaitoa,-16.7833,-151.5,301.1,73,94,4.92,PF,1615437383
535,novobelokatay,55.7062,58.9549,252.04,90,100,4.69,RU,1615437383
536,la primavera,5.4906,-70.4092,299.17,59,98,2.84,CO,1615437384
537,westport,41.1415,-73.3579,278.71,87,1,2.57,US,1615437384
538,kochubey,44.3861,46.5825,271.98,85,100,5.74,RU,1615437384
539,ambilobe,-13.2,49.05,299.34,85,0,0.78,MG,1615437385
540,farafangana,-22.8167,47.8333,299.07,80,34,1.69,MG,1615437385
541,guacimo,10.2104,-83.6807,295.15,64,0,5.66,CR,1615437385
542,mbigou,-1.9005,11.906,294.15,97,100,1.05,GA,1615437386
543,aklavik,68.2191,-135.0107,263.15,85,100,2.57,CA,1615437386
544,saint-pierre,-21.3393,55.4781,301.15,65,4,6.17,RE,1615437386
545,karasjok,69.4719,25.5112,261.15,67,98,15.43,NO,1615437387
546,petukhovo,55.0692,67.9019,261.5,94,100,7.31,RU,1615437387
547,dharchula,29.85,80.5333,296.23,21,0,1.8,IN,1615437387
548,yuza,39.0,139.9167,281.15,57,20,4.63,JP,1615437388
549,sakaiminato,35.55,133.2333,287.15,38,75,3.6,JP,1615437388
550,strezhevoy,60.7333,77.5889,247.15,76,0,2.0,RU,1615437128
551,aswan,24.0934,32.907,295.88,37,0,2.57,EG,1615437388
552,nishihara,26.1842,127.7558,298.15,46,20,6.17,JP,1615437389
553,huron,41.1501,-82.5499,289.82,41,100,3.13,US,1615437389
554,puerto lempira,15.2667,-83.7667,297.14,87,0,3.42,HN,1615437389
555,goroka,-6.0834,145.3873,294.97,78,93,1.58,PG,1615437390
556,sibolga,1.7427,98.7792,303.7,58,91,2.84,ID,1615437217
