,City,Lat,lng,Max Temp,Humidity,Cloudiness,Wind Speed,Country,Date
0,kodiak,57.79,-152.4072,271.15,40,1,10.8,US,1615446322
1,povenets,62.8487,34.8262,256.24,88,0,1.89,RU,1615446323
2,puerto ayora,-0.7393,-90.3518,296.48,98,100,1.6,EC,1615446323
3,norman wells,65.282,-126.8329,263.15,67,75,6.17,CA,1615446323
4,saldanha,-33.0117,17.9442,290.15,78,75,5.14,ZA,1615446323
5,malakal,9.5334,31.6605,309.71,23,2,2.83,SS,1615446324
6,qaanaaq,77.484,-69.3632,257.81,78,0,2.16,GL,1615446324
7,bubaque,11.2833,-15.8333,298.67,57,63,6.35,GW,1615446324
8,dzerzhinsk,56.2389,43.4631,258.15,66,0,3.0,RU,1615446325
9,vila franca do campo,37.7167,-25.4333,289.15,88,75,6.69,PT,1615446325
10,sitka,57.0531,-135.33,277.15,70,90,6.17,US,1615446206
11,port elizabeth,-33.918,25.5701,292.15,88,75,4.12,ZA,1615446325
12,hobart,-42.8794,147.3294,292.15,68,71,6.69,AU,1615446326
13,rikitea,-23.1203,-134.9692,299.09,75,4,8.4,PF,1615446326
14,ngunguru,-35.6167,174.5,292.46,79,22,3.66,NZ,1615446327
15,ushuaia,-54.8,-68.3,278.15,75,75,16.46,AR,1615446094
16,yellowknife,62.456,-114.3525,247.59,84,1,1.54,CA,1615446067
17,los llanos de aridane,28.6585,-17.9182,291.15,59,90,5.66,ES,1615446327
18,pavino,59.1139,46.1414,263.79,94,97,4.92,RU,1615446327
19,serenje,-13.2325,30.2352,293.75,89,3,2.6,ZM,1615446328
20,hermanus,-34.4187,19.2345,290.37,93,100,0.45,ZA,1615446300
21,saint george,37.1041,-113.5841,278.71,81,75,2.57,US,1615446328
22,knysna,-34.0363,23.0471,291.15,77,20,2.57,ZA,1615446328
23,carnarvon,-24.8667,113.6333,303.15,66,0,6.17,AU,1615446329
24,zolotukhino,52.0842,36.3772,258.15,61,0,5.0,RU,1615446329
25,saint-georges,12.0564,-61.7485,298.15,83,20,5.14,GD,1615446329
26,santa helena de goias,-17.8136,-50.5969,293.14,92,100,2.4,BR,1615446227
27,cidreira,-30.1811,-50.2056,291.43,89,13,3.16,BR,1615446330
28,port hardy,50.6996,-127.4199,279.15,93,1,2.06,CA,1615446330
29,avarua,-21.2078,-159.775,298.15,94,85,0.51,CK,1615446330
30,mataura,-46.1927,168.8643,286.48,65,1,1.79,NZ,1615446331
31,mana,5.6592,-53.7767,297.66,89,100,4.79,GF,1615446331
32,albany,42.6001,-73.9662,279.15,81,90,5.66,US,1615446331
33,pitimbu,-7.4706,-34.8086,297.15,100,40,2.06,BR,1615446332
34,mahebourg,-20.4081,57.7,302.15,58,40,5.66,MU,1615446332
35,kapaa,22.0752,-159.319,295.37,100,90,1.54,US,1615446332
36,thompson,55.7435,-97.8558,256.15,71,90,5.66,CA,1615446263
37,yarmolyntsi,49.1924,26.8373,269.27,93,4,4.2,UA,1615446333
38,butaritari,3.0707,172.7902,300.71,77,55,4.57,KI,1615446333
39,ndola,-12.9587,28.6366,292.69,94,92,2.84,ZM,1615446333
40,hofn,64.2539,-15.2082,276.16,76,19,4.86,IS,1615446334
41,sabang,5.8933,95.3214,301.14,77,3,8.27,ID,1615446334
42,mar del plata,-38.0023,-57.5575,292.59,88,0,2.57,AR,1615446334
43,allapalli,19.4167,80.0667,311.96,17,0,2.3,IN,1615446335
44,qasigiannguit,68.8193,-51.1922,265.15,73,90,2.06,GL,1615446335
45,aswan,24.0934,32.907,301.82,23,0,3.56,EG,1615446335
46,stuttgart,48.7823,9.177,283.71,62,40,5.14,DE,1615446125
47,hilo,19.7297,-155.09,295.15,83,1,4.08,US,1615446188
48,bredasdorp,-34.5322,20.0403,291.15,82,40,2.57,ZA,1615446336
49,saint-philippe,-21.3585,55.7679,302.15,61,0,10.8,RE,1615446336
50,sakakah,29.9697,40.2064,297.15,17,0,6.69,SA,1615446337
51,atuona,-9.8,-139.0333,299.46,70,87,6.28,PF,1615446235
52,punta arenas,-53.15,-70.9167,280.15,76,75,15.43,CL,1615446337
53,satipo,-11.2522,-74.6386,292.92,83,58,0.64,PE,1615446337
54,sechura,-5.5569,-80.8222,298.7,63,21,4.12,PE,1615446338
55,vaini,-21.2,-175.2,297.15,83,20,3.6,TO,1615446338
56,seoul,37.5683,126.9778,291.15,33,100,4.63,KR,1615446338
57,khatanga,71.9667,102.5,248.12,88,100,10.45,RU,1615446339
58,bluff,-46.6,168.3333,286.48,65,0,1.79,NZ,1615446339
59,port alfred,-33.5906,26.891,292.04,95,100,1.79,ZA,1615446339
60,iqaluit,63.7506,-68.5145,245.37,69,1,3.09,CA,1615446340
61,georgetown,5.4112,100.3354,306.15,58,20,4.63,MY,1615446340
62,la ronge,55.1001,-105.2842,258.15,47,0,3.09,CA,1615446340
63,krasnokholm,51.5979,54.1567,254.99,89,0,4.39,RU,1615446340
64,atbasar,51.8,68.3333,262.23,92,70,10.2,KZ,1615446341
65,torbay,47.6666,-52.7314,270.93,93,20,10.29,CA,1615446328
66,busselton,-33.65,115.3333,297.04,81,100,0.89,AU,1615446341
67,tasiilaq,65.6145,-37.6368,263.15,67,100,4.12,GL,1615446342
68,sandwick,60.0,-1.25,280.15,87,75,4.12,GB,1615446342
69,talcahuano,-36.7167,-73.1167,285.15,100,20,1.54,CL,1615446342
70,izazi,-7.2,35.7333,294.15,68,20,0.43,TZ,1615446343
71,berlevag,70.8578,29.0864,263.15,73,100,12.86,NO,1615446191
72,denpasar,-8.65,115.2167,303.15,74,20,4.63,ID,1615446343
73,provideniya,64.3833,-173.3,249.15,70,0,2.0,RU,1615446344
74,algiers,36.7525,3.042,278.15,93,0,1.03,DZ,1615446159
75,hamilton,39.1834,-84.5333,289.82,44,40,7.2,US,1615446116
76,severo-kurilsk,50.6789,156.125,272.83,98,100,4.71,RU,1615446344
77,nanortalik,60.1432,-45.2371,268.49,93,100,7.41,GL,1615446344
78,kingaroy,-26.5333,151.8333,295.15,83,75,2.06,AU,1615446345
79,isangel,-19.55,169.2667,300.15,65,75,3.09,VU,1615446345
80,salalah,17.0151,54.0924,301.15,57,0,2.57,OM,1615446345
81,castro,-24.7911,-50.0119,287.41,93,1,1.26,BR,1615446064
82,hereford,52.0568,-2.7148,280.93,91,100,0.45,GB,1615446346
83,jamestown,42.097,-79.2353,287.15,30,90,5.5,US,1615446240
84,upernavik,72.7868,-56.1549,259.75,83,100,1.41,GL,1615446346
85,shimoda,34.6667,138.95,288.15,51,20,3.6,JP,1615446346
86,kanniyakumari,8.0833,77.5667,303.64,61,0,7.73,IN,1615446347
87,caravelas,-17.7125,-39.2481,295.68,90,0,2.87,BR,1615446347
88,kirkenaer,60.4564,12.0582,272.15,93,75,6.17,NO,1615446347
89,hithadhoo,-0.6,73.0833,300.05,75,27,4.5,MV,1615446348
90,kaitangata,-46.2817,169.8464,287.04,72,37,1.34,NZ,1615446348
91,lata,40.1629,-8.3327,285.93,97,100,0.63,PT,1615446348
92,wajima,37.4,136.9,284.15,54,0,2.06,JP,1615446349
93,faanui,-16.4833,-151.75,301.16,75,0,5.36,PF,1615446349
94,aasiaat,68.7098,-52.8699,261.81,96,100,2.18,GL,1615446349
95,arraial do cabo,-22.9661,-42.0278,296.75,83,100,1.88,BR,1615446350
96,kaeo,-35.1,173.7833,291.62,84,0,1.8,NZ,1615446350
97,nhulunbuy,-12.2333,136.7667,299.15,89,100,3.6,AU,1615446350
98,ponta do sol,32.6667,-17.1,286.48,69,69,1.34,PT,1615446351
99,weinan,34.5036,109.5089,289.82,62,0,2.0,CN,1615446351
100,port lincoln,-34.7333,135.8667,294.22,63,97,3.51,AU,1615446351
101,coquimbo,-29.9533,-71.3436,288.15,100,0,1.03,CL,1615446352
102,nikolskoye,59.7035,30.7861,260.37,66,0,4.0,RU,1615446352
103,airai,-8.9266,125.4092,292.93,100,100,0.66,TL,1615446352
104,ancud,-41.8697,-73.8203,284.26,93,0,1.54,CL,1615446353
105,alpena,45.0617,-83.4327,288.15,77,90,6.17,US,1615446353
106,lebu,-37.6167,-73.65,285.54,88,1,2.42,CL,1615446353
107,banjar,-8.19,114.9675,303.15,74,20,4.63,ID,1615446354
108,bilibino,68.0546,166.4372,245.69,77,50,1.33,RU,1615446354
109,palora,-1.7,-77.9333,291.79,91,100,0.92,EC,1615446354
110,masvingo,-20.0637,30.8277,297.9,47,0,1.22,ZW,1615446355
111,goure,13.9835,10.2704,304.26,5,100,3.13,NE,1615446355
112,boiro,42.65,-8.9,287.59,83,100,4.02,ES,1615446355
113,chokurdakh,70.6333,147.9167,246.96,86,100,2.78,RU,1615446356
114,buala,-8.145,159.5921,301.02,75,100,2.1,SB,1615446356
115,derzhavinsk,51.1,66.3167,259.09,93,83,10.54,KZ,1615446356
116,rio gallegos,-51.6226,-69.2181,283.15,37,40,9.77,AR,1615446357
117,bandarbeyla,9.4942,50.8122,300.26,64,3,5.1,SO,1615446357
118,east london,-33.0153,27.9116,296.15,68,0,4.63,ZA,1615446357
119,caronport,50.4501,-105.8179,267.15,79,100,7.72,CA,1615446357
120,uige,-7.6087,15.0613,294.78,89,31,1.19,AO,1615446358
121,camargo,27.6667,-105.1667,292.18,26,100,3.76,MX,1615446358
122,cabo san lucas,22.8909,-109.9124,292.04,72,0,0.39,MX,1615446282
123,tuktoyaktuk,69.4541,-133.0374,259.15,85,90,5.66,CA,1615446359
124,sao filipe,14.8961,-24.4956,293.5,75,100,5.92,CV,1615446359
125,bairiki,1.3292,172.9752,300.15,78,75,5.66,KI,1615446359
126,mikkeli,61.6886,27.2723,258.15,90,0,4.72,FI,1615446360
127,dali,25.7,100.1833,293.74,26,2,4.35,CN,1615446360
128,morant bay,17.8815,-76.4093,297.59,83,75,3.6,JM,1615446360
129,amapa,1.0,-52.0,294.19,98,100,0.27,BR,1615446360
130,san jeronimo,-11.9472,-75.2829,281.5,77,100,0.74,PE,1615446361
131,sovetskaya gavan,48.9723,140.2878,273.93,88,38,2.34,RU,1615446361
132,santa isabel,-23.3156,-46.2214,293.15,94,75,2.57,BR,1615446362
133,xuddur,4.1213,43.8894,303.79,38,17,9.12,SO,1615446362
134,naze,28.3667,129.4833,294.15,60,75,6.17,JP,1615446362
135,loreto,22.2667,-101.9667,285.49,41,0,1.57,MX,1615446363
136,pangnirtung,66.1451,-65.7125,248.01,84,100,0.98,CA,1615446363
137,pevek,69.7008,170.3133,246.67,78,55,7.88,RU,1615446363
138,mount darwin,-16.7725,31.5838,296.34,79,31,1.72,ZW,1615446363
139,gat,31.61,34.7642,292.04,10,30,0.45,IL,1615446243
140,port hedland,-20.3167,118.5667,306.15,66,57,5.14,AU,1615446364
141,san cristobal,7.7669,-72.225,291.51,85,100,1.23,VE,1615446364
142,mount gambier,-37.8333,140.7667,296.15,49,21,7.72,AU,1615446365
143,suntar,62.1444,117.6319,264.96,92,100,3.91,RU,1615446365
144,kushiro,42.975,144.3747,274.15,64,20,6.69,JP,1615446365
145,zhezkazgan,47.8043,67.7144,266.15,79,90,9.0,KZ,1615446366
146,richards bay,-28.783,32.0377,299.71,60,0,3.48,ZA,1615446366
147,vardo,70.3705,31.1107,260.15,92,100,20.58,NO,1615446366
148,seredka,58.1584,28.1858,264.15,67,0,4.0,RU,1615446367
149,sao gabriel da cachoeira,-0.1303,-67.0892,293.76,99,42,0.43,BR,1615446367
150,dzhebariki-khaya,62.2167,135.8,261.21,92,100,2.73,RU,1615446367
151,ilulissat,69.2167,-51.1,265.15,73,90,2.06,GL,1615446367
152,sangar,63.9242,127.4739,258.12,93,100,3.31,RU,1615446368
153,promyshlennaya,54.9159,85.6385,268.15,63,20,8.0,RU,1615446368
154,ribeira grande,38.5167,-28.7,287.35,80,100,10.03,PT,1615446368
155,henties bay,-22.116,14.2845,292.62,79,0,1.45,NA,1615446369
156,qeshm,26.9581,56.2719,301.15,51,0,2.06,IR,1615446369
157,barcelona,41.3888,2.159,284.82,76,0,4.12,ES,1615445598
158,rong kwang,18.339,100.3174,307.15,46,68,2.06,TH,1615446369
159,bathsheba,13.2167,-59.5167,298.15,65,20,7.72,BB,1615446370
160,boueni,-12.9025,45.0761,303.15,74,0,1.54,YT,1615446370
161,waitati,-45.75,170.5667,287.04,74,22,5.81,NZ,1615446370
162,mercedes,-34.6515,-59.4307,291.48,95,100,4.32,AR,1615446371
163,vanimo,-2.6741,141.3028,301.73,72,2,4.12,PG,1615446371
164,san ramon de la nueva oran,-23.1322,-64.326,296.48,87,63,0.6,AR,1615446371
165,pechenga,69.5259,31.1703,259.15,72,0,6.69,RU,1615446372
166,chapais,49.7834,-74.8492,276.15,100,90,3.6,CA,1615446372
167,valreas,44.3837,4.9908,280.37,81,0,0.51,FR,1615446372
168,ekhabi,53.5102,142.9671,267.01,95,100,8.21,RU,1615446373
169,savinka,50.0785,47.0994,255.88,90,0,4.56,RU,1615446373
170,laela,-8.5667,32.05,293.5,83,100,1.77,TZ,1615446373
171,darya khan,31.7912,71.1039,300.96,26,54,5.19,PK,1615446374
172,tiradentes,-21.1103,-44.1781,290.45,92,100,0.65,BR,1615446374
173,bengkulu,-3.8004,102.2655,302.58,68,100,4.07,ID,1615446260
174,gravelbourg,49.8834,-106.5512,263.37,96,100,4.64,CA,1615446374
175,beringovskiy,63.05,179.3167,251.21,85,0,1.06,RU,1615446375
176,monster,52.0258,4.175,283.71,76,20,15.95,NL,1615446375
177,labuhan,-6.8844,112.2051,302.0,74,50,5.81,ID,1615446375
178,jodar,37.8406,-3.3526,278.15,66,0,0.89,ES,1615446376
179,olafsvik,64.8945,-23.7142,269.5,89,89,9.77,IS,1615446376
180,victoria,22.2855,114.1577,295.93,77,2,0.89,HK,1615446376
181,aklavik,68.2191,-135.0107,263.15,85,100,2.06,CA,1615446377
182,verkhnyaya inta,65.9811,60.3094,253.92,87,100,3.49,RU,1615446377
183,terrace,54.5163,-128.6035,271.15,74,90,1.03,CA,1615446377
184,pandan niog,6.2282,120.5631,298.95,87,100,5.24,PH,1615446378
185,huilong,31.8111,121.655,285.37,95,100,0.89,CN,1615446378
186,dikson,73.5069,80.5464,249.58,90,100,10.16,RU,1615446378
187,talnakh,69.4865,88.3972,242.85,84,96,3.17,RU,1615446378
188,rocha,-34.4833,-54.3333,287.83,91,0,1.35,UY,1615446227
189,mount isa,-20.7333,139.5,303.15,54,40,1.54,AU,1615446379
190,olivenza,38.6832,-7.103,281.15,100,0,1.54,ES,1615446379
191,san patricio,28.017,-97.5169,294.26,88,90,10.8,US,1615446380
192,gawler,-34.6,138.7333,300.37,40,89,4.47,AU,1615446380
193,lompoc,34.6391,-120.4579,278.15,93,1,2.06,US,1615446380
194,sayyan,15.1718,44.3244,291.37,23,0,3.09,YE,1615446380
195,high rock,26.6208,-78.2833,291.15,82,20,4.12,BS,1615446196
196,mahates,10.2329,-75.1899,299.15,83,75,4.63,CO,1615446381
197,santo tomas,14.1079,121.1414,305.37,43,20,7.72,PH,1615446192
198,porangatu,-13.4408,-49.1486,294.17,93,100,0.43,BR,1615446205
199,saskylakh,71.9167,114.0833,248.32,84,100,9.24,RU,1615446382
200,beyneu,45.3167,55.2,270.41,70,99,4.72,KZ,1615446382
201,tiksi,71.6872,128.8694,246.95,84,100,13.32,RU,1615446382
202,tessalit,20.1986,1.0114,290.43,28,0,2.82,ML,1615446382
203,esperance,-33.8667,121.9,303.15,39,40,3.6,AU,1615446383
204,adrar,20.5022,-10.0711,288.7,36,0,7.14,MR,1615446383
205,hambantota,6.1241,81.1185,304.15,66,20,3.6,LK,1615446383
206,anadyr,64.75,177.4833,245.37,69,0,2.0,RU,1615446384
207,vidim,56.4088,103.1106,274.58,89,100,5.38,RU,1615446384
208,jiangyan,32.5061,120.1428,284.82,99,100,2.8,CN,1615446384
209,cape town,-33.9258,18.4232,293.15,77,20,3.6,ZA,1615446082
210,polovinnoye,54.7914,65.9864,263.24,95,100,3.34,RU,1615446385
211,dunkwa,5.9656,-1.78,297.08,95,100,0.62,GH,1615446385
212,barrow,71.2906,-156.7887,250.15,64,1,6.69,US,1615446385
213,jaque,7.5175,-78.1703,297.73,85,97,1.42,PA,1615446195
214,beloha,-25.1667,45.05,304.47,49,0,3.3,MG,1615446386
215,norfolk,42.1668,-71.2495,275.93,86,1,3.15,US,1615446097
216,inhambane,-23.865,35.3833,300.66,73,3,4.27,MZ,1615446386
217,twin falls,42.3505,-114.6445,272.04,58,1,3.09,US,1615446387
218,abu samrah,35.3029,37.1841,289.48,53,12,7.12,SY,1615446387
219,bihoro,43.8228,144.1044,278.15,45,75,2.06,JP,1615446369
220,mecca,21.4267,39.8261,304.12,32,0,1.58,SA,1615446275
221,aquidauana,-20.4711,-55.7872,293.75,67,0,0.96,BR,1615446387
222,zeya,53.75,127.2667,269.71,92,100,1.24,RU,1615446388
223,bongaree,-27.0797,153.1586,296.48,87,100,0.45,AU,1615446388
224,maniitsoq,65.4167,-52.9,265.32,92,100,4.96,GL,1615446388
225,puerto escondido,15.85,-97.0667,297.78,69,0,2.08,MX,1615446368
226,lannion,48.75,-3.4167,283.15,76,75,10.29,FR,1615446389
227,oksfjord,70.2396,22.3479,267.15,68,0,5.14,NO,1615446389
228,guerrero negro,27.9769,-114.0611,286.23,78,1,5.34,MX,1615446389
229,alice springs,-23.7,133.8833,303.15,51,100,3.09,AU,1615446390
230,virovitica,45.8319,17.3839,275.37,64,0,2.06,HR,1615446390
231,cherskiy,68.75,161.3,254.63,87,100,6.0,RU,1615446390
232,goundam,16.4145,-3.6708,293.92,23,0,5.45,ML,1615446391
233,lakhdenpokhya,61.5198,30.1992,263.71,87,0,4.79,RU,1615446391
234,montgomery,39.1501,-77.1997,285.93,46,1,3.09,US,1615446391
235,gizo,-8.103,156.8419,302.09,68,89,1.12,SB,1615446392
236,coihaique,-45.5752,-72.0662,280.34,84,100,5.19,CL,1615446392
237,marzuq,14.4,46.4667,300.15,15,0,1.74,YE,1615446392
238,shablykino,52.8566,35.1964,254.62,88,0,3.41,RU,1615446393
239,srednekolymsk,67.45,153.6833,254.23,89,34,3.43,RU,1615446393
240,bambanglipuro,-7.95,110.2833,302.46,70,100,3.53,ID,1615446393
241,bethel,41.3712,-73.414,279.15,81,90,2.06,US,1615446357
242,sidi ali,36.0998,0.4206,282.04,91,0,1.92,DZ,1615446394
243,tura,25.5198,90.2201,306.18,22,0,3.0,IN,1615446394
244,mangrol,21.1167,70.1167,301.25,50,0,3.71,IN,1615446394
245,jackson,42.4165,-122.8345,279.15,75,90,0.43,US,1615446112
246,san policarpo,12.1791,125.5072,298.49,90,100,9.84,PH,1615446395
247,ronne,55.1009,14.7066,275.15,100,90,10.8,DK,1615446395
248,vilhena,-12.7406,-60.1458,292.3,99,98,1.92,BR,1615446395
249,maanshan,31.6957,118.4983,284.26,100,90,1.0,CN,1615446396
250,yerbogachen,61.2767,108.0108,266.37,96,100,3.21,RU,1615446396
251,suffolk,40.8668,-72.7996,278.15,93,1,1.54,US,1615446303
252,half moon bay,37.4636,-122.4286,280.15,93,90,2.06,US,1615446397
253,egvekinot,66.3167,-179.1667,237.8,88,16,0.42,RU,1615446397
254,kupang,-10.1667,123.5833,304.15,70,75,3.6,ID,1615446397
255,muros,42.7762,-9.0603,287.59,83,100,4.02,ES,1615446397
256,boffa,10.1667,-14.0333,294.25,92,59,1.25,GN,1615446398
257,new norfolk,-42.7826,147.0587,293.15,47,73,0.89,AU,1615446398
258,meulaboh,4.1363,96.1285,303.6,58,2,3.44,ID,1615446398
259,nouadhibou,20.931,-17.0347,288.15,77,0,9.26,MR,1615446399
260,honningsvag,70.9821,25.9704,264.15,67,0,13.89,NO,1615446399
261,bambous virieux,-20.3428,57.7575,303.15,58,40,5.66,MU,1615446399
262,kavaratti,10.5669,72.642,301.64,70,1,3.44,IN,1615446400
263,formosa do rio preto,-11.0483,-45.1931,293.36,93,100,2.46,BR,1615446400
264,birjand,32.8663,59.2211,287.15,23,0,1.75,IR,1615446400
265,san quintin,30.4833,-115.95,285.62,73,1,3.56,MX,1615446401
266,cao bang,22.6667,106.25,300.64,57,4,3.46,VN,1615446401
267,teya,60.3778,92.6267,274.72,91,100,6.79,RU,1615446401
268,iaciara,-14.0958,-46.6317,292.39,98,100,1.76,BR,1615446402
269,nizhnyaya tavda,57.6731,66.1725,258.0,93,100,4.74,RU,1615446402
270,ambo,-10.1308,-76.2047,287.05,66,74,0.51,PE,1615446402
271,bonavista,48.6499,-53.1147,270.37,86,8,4.12,CA,1615446403
272,caernarfon,53.1413,-4.2702,281.15,71,75,13.38,GB,1615446403
273,tuatapere,-46.1333,167.6833,286.48,65,0,1.79,NZ,1615446403
274,zomba,-15.386,35.3188,301.15,61,20,2.57,MW,1615446404
275,vao,-22.6667,167.4833,298.5,71,48,7.66,NC,1615446404
276,port macquarie,-31.4333,152.9167,296.15,73,75,5.14,AU,1615446404
277,rameswaram,9.2833,79.3,301.13,74,0,5.69,IN,1615446405
278,andenes,69.3143,16.1194,270.15,63,0,10.29,NO,1615446405
279,clyde river,70.4692,-68.5914,251.15,77,90,5.14,CA,1615446405
280,lukh,57.0124,42.2584,258.4,93,2,4.8,RU,1615446405
281,dingle,10.9995,122.6711,297.62,90,100,4.72,PH,1615446406
282,brumado,-14.2036,-41.6653,292.98,63,1,0.78,BR,1615446406
283,erenhot,43.6475,111.9767,279.46,61,6,4.12,CN,1615446406
284,lasa,46.6166,10.7002,275.93,80,0,1.09,IT,1615446407
285,elizabeth city,36.2946,-76.2511,285.37,50,1,3.6,US,1615446407
286,buta,2.7858,24.73,299.07,76,9,0.91,CD,1615446407
287,koslan,63.4564,48.8989,262.08,92,91,4.79,RU,1615446408
288,yabelo,4.8833,38.0833,296.15,36,0,7.88,ET,1615446408
289,agadez,19.75,10.25,299.34,13,0,3.36,NE,1615446408
290,mmabatho,-25.85,25.6333,297.15,35,0,4.12,ZA,1615446409
291,pisco,-13.7,-76.2167,295.37,83,0,1.54,PE,1615446409
292,polunochnoye,60.8697,60.4153,253.04,87,4,1.99,RU,1615446409
293,tutoia,-2.7619,-42.2744,298.25,90,97,3.12,BR,1615446410
294,ankang,32.68,109.0172,290.96,43,100,1.1,CN,1615446410
295,saint-pierre,-21.3393,55.4781,302.15,61,0,10.8,RE,1615446410
296,davila,18.4726,120.5763,305.15,51,20,4.63,PH,1615446411
297,havelock,34.8791,-76.9013,282.04,87,1,2.53,US,1615446411
298,quatre cocos,-20.2078,57.7625,303.15,58,40,5.66,MU,1615446411
299,cockburn town,21.4612,-71.1419,295.15,88,75,9.26,TC,1615446412
300,natal,-5.795,-35.2094,300.15,83,40,4.12,BR,1615446412
301,northam,51.0333,-4.2167,282.04,84,100,9.39,GB,1615446322
302,sorland,67.667,12.6934,274.15,69,75,12.35,NO,1615446413
303,pangoa,-12.1167,-73.0,291.99,82,100,1.1,PE,1615446413
304,umm kaddadah,13.6017,26.6876,303.57,11,8,8.77,SD,1615446413
305,biloela,-24.4167,150.5,300.65,59,98,3.58,AU,1615446414
306,kruisfontein,-34.0033,24.7314,291.48,91,100,0.89,ZA,1615446414
307,puerto leguizamo,-0.1934,-74.7819,294.9,98,100,0.49,CO,1615446414
308,atar,20.5169,-13.0499,288.04,35,6,4.55,MR,1615446414
309,koindu,8.4386,-10.3253,295.11,98,42,1.36,GN,1615446415
310,tanabe,33.7333,135.3667,288.15,51,40,2.06,JP,1615446415
311,voh,-20.9667,164.7,297.53,79,67,2.35,NC,1615446415
312,mancio lima,-7.6142,-72.8958,293.64,94,79,0.38,BR,1615446416
313,aracati,-4.5617,-37.7697,298.57,82,100,3.54,BR,1615446416
314,luderitz,-26.6481,15.1594,294.66,62,0,3.37,NA,1615446416
315,ambilobe,-13.2,49.05,304.0,69,0,0.25,MG,1615446417
316,batagay,67.6333,134.6333,257.05,89,99,1.42,RU,1615446417
317,nacogdoches,31.6002,-94.6335,293.71,83,90,5.66,US,1615446417
318,bijie,27.3125,105.2942,287.55,62,99,2.29,CN,1615446418
319,tecoanapa,16.5167,-98.75,295.92,82,0,1.82,MX,1615446418
320,maneadero,31.7167,-116.5667,282.04,88,5,1.79,MX,1615446418
321,mandiana,10.6333,-8.6833,295.4,26,0,0.71,GN,1615446419
322,geraldton,-28.7667,114.6,302.15,58,99,9.26,AU,1615446419
323,petukhovo,55.0692,67.9019,261.81,94,100,7.3,RU,1615446419
324,svetlogorsk,52.6333,29.7333,267.72,93,0,3.67,BY,1615446420
325,anshun,26.25,105.9333,289.97,67,70,2.81,CN,1615446420
326,nata,8.3333,-80.5167,296.48,49,72,1.34,PA,1615446420
327,burnie,-41.0667,145.9167,293.15,66,0,3.58,AU,1615446421
328,severodvinsk,64.5635,39.8302,260.15,61,0,3.0,RU,1615446421
329,ikom,5.9667,8.7063,299.54,82,100,0.9,NG,1615446421
330,sept-iles,50.2001,-66.3821,273.15,80,90,1.03,CA,1615446268
331,klaksvik,62.2266,-6.589,277.15,93,75,3.09,FO,1615446422
332,ocampo,21.65,-101.5,286.06,38,0,3.77,MX,1615446422
333,port shepstone,-30.7414,30.455,298.68,71,0,9.09,ZA,1615446422
334,luwuk,-0.9516,122.7875,301.45,73,86,0.67,ID,1615446423
335,watertown,42.3709,-71.1828,276.48,80,1,1.54,US,1615446423
336,margate,51.3813,1.3862,283.71,62,0,5.36,GB,1615446423
337,inhuma,-6.6683,-41.7078,293.68,85,63,1.12,BR,1615446424
338,narrabri,-30.3167,149.7833,301.15,47,90,6.17,AU,1615446424
339,charters towers,-20.1,146.2667,303.38,46,62,5.16,AU,1615446424
340,nome,64.5011,-165.4064,244.15,69,40,1.15,US,1615446425
341,synya,65.3718,58.0387,253.34,91,100,3.28,RU,1615446425
342,sawakin,19.1059,37.3321,299.85,70,18,4.49,SD,1615446425
343,wote,-1.7808,37.6288,299.77,47,0,1.98,KE,1615446425
344,colorado springs,38.8339,-104.8214,273.15,51,1,2.57,US,1615446411
345,terney,45.0503,136.6092,277.34,70,0,1.64,RU,1615446426
346,plotnikovo,55.0247,85.9436,268.15,63,20,8.0,RU,1615446426
347,clarence town,-32.5833,151.7833,299.26,64,75,5.14,AU,1615446426
348,itoman,26.1247,127.6694,297.15,60,40,4.63,JP,1615446427
349,ekuvukeni,-28.4675,30.1551,298.8,26,0,1.38,ZA,1615446427
350,ranot,7.7777,100.3213,302.07,67,24,5.32,TH,1615446427
351,taltal,-25.4,-70.4833,291.09,79,5,1.2,CL,1615446428
352,yar-sale,66.8333,70.8333,242.9,85,0,4.28,RU,1615446428
353,parabel,58.6978,81.4825,265.46,96,100,3.07,RU,1615446428
354,flinders,-34.5833,150.8552,297.04,73,100,1.79,AU,1615446429
355,coswig,51.1333,13.5833,276.48,81,90,7.2,DE,1615446288
356,katsuura,35.1333,140.3,288.15,44,20,5.66,JP,1615446429
357,nerchinsk,51.9833,116.5833,272.07,94,3,2.16,RU,1615446430
358,itarema,-2.9248,-39.9167,297.96,88,52,4.62,BR,1615446430
359,nesbyen,60.5681,9.1027,268.15,94,100,3.58,NO,1615446430
360,san vicente,-26.6167,-54.1333,285.95,92,0,1.33,AR,1615446431
361,santa maria do suacui,-18.1903,-42.4142,292.38,94,58,0.61,BR,1615446431
362,druzhba,52.0428,33.9453,259.28,94,10,4.01,UA,1615446431
363,cervo,43.6702,-7.4101,283.71,94,100,5.36,ES,1615446432
364,agadir,30.4202,-9.5982,281.15,93,0,0.92,MA,1615446432
365,agvali,42.5385,46.1197,274.59,78,100,0.23,RU,1615446432
366,iralaya,15.0,-83.2333,297.87,85,0,4.75,HN,1615446433
367,vaitape,-16.5167,-151.75,301.16,75,0,5.28,PF,1615446433
368,lagoa,39.05,-27.9833,286.38,75,100,7.14,PT,1615446433
369,shancheng,34.7953,116.0817,281.66,82,100,2.54,CN,1615446434
370,diapaga,12.0708,1.7889,301.65,42,0,3.17,BF,1615446434
371,rio grande,-32.035,-52.0986,288.15,98,14,1.95,BR,1615446434
372,kahului,20.8947,-156.47,295.15,94,20,1.24,US,1615446435
373,asau,46.4333,26.4,270.93,86,20,0.51,RO,1615446435
374,saint-paul,-21.0096,55.2707,302.15,65,20,9.77,RE,1615446435
375,codrington,-38.2667,141.9667,290.89,77,70,5.18,AU,1615446435
376,calamar,10.2511,-74.9146,299.15,83,75,4.63,CO,1615446436
377,sarai naurang,32.8259,70.7814,297.77,37,100,5.68,PK,1615446436
378,urucara,-2.5364,-57.76,295.84,99,100,0.59,BR,1615446436
379,chuy,-33.6971,-53.4616,289.16,88,0,1.25,UY,1615446437
380,kenai,60.5544,-151.2583,270.15,80,90,3.09,US,1615446437
381,amroha,28.9167,78.4667,308.62,11,0,1.08,IN,1615446437
382,cayenne,4.9333,-52.3333,299.26,94,75,0.51,GF,1615446438
383,akyab,20.15,92.9,302.91,43,0,6.45,MM,1615446438
384,amuntai,-2.4177,115.2494,305.28,53,77,1.62,ID,1615446394
385,nyimba,-14.5566,30.8149,297.17,84,13,1.28,ZM,1615446439
386,vagur,61.4732,-6.8119,277.89,85,100,8.83,FO,1615446439
387,amurzet,47.6967,131.0981,275.49,81,0,2.55,RU,1615446439
388,hirara,24.8,125.2833,298.15,61,20,6.17,JP,1615446439
389,bodden town,19.2833,-81.25,298.15,1,24,14.75,KY,1615446440
390,narsaq,60.9167,-46.05,268.15,63,75,1.54,GL,1615446440
391,chimbote,-9.0853,-78.5783,296.94,76,100,1.64,PE,1615446441
392,hit,33.6416,42.8251,299.94,17,100,7.47,IQ,1615446441
393,fortuna foothills,32.6578,-114.4119,285.93,50,1,2.57,US,1615446441
394,san juan de betulia,9.2735,-75.241,297.66,71,100,3.03,CO,1615446441
395,roma,43.2128,-75.4557,280.93,61,1,3.09,US,1615446442
396,phitsanulok,16.9167,100.5,307.15,52,2,2.06,TH,1615446442
397,launceston,-41.45,147.1667,297.15,41,0,5.14,AU,1615446442
398,avera,33.194,-82.5271,285.15,82,1,2.63,US,1615446443
399,asyut,27.181,31.1837,291.15,29,0,2.57,EG,1615446223
400,hasaki,35.7333,140.8333,288.15,47,20,4.63,JP,1615446443
401,manono,-7.3,27.4167,298.11,76,93,1.18,CD,1615446443
402,tiznit,29.5833,-9.5,284.65,48,0,2.75,MA,1615446444
403,honolulu,21.3069,-157.8583,295.15,100,75,6.17,US,1615446313
404,chimbarongo,-34.7,-71.05,290.15,94,90,3.6,CL,1615446444
405,duma,34.7653,108.135,287.15,62,0,2.0,CN,1615446445
406,enterprise,36.0252,-115.2419,281.48,42,75,8.23,US,1615446445
407,alyangula,-13.8483,136.4192,299.15,94,75,0.51,AU,1615446445
408,hammerfest,70.6634,23.6821,263.15,57,0,5.4,NO,1615446446
409,fortuna,40.5982,-124.1573,277.59,100,90,3.6,US,1615446446
410,lafia,8.4833,8.5167,300.19,68,100,2.64,NG,1615446263
411,santa vitoria do palmar,-33.5189,-53.3681,289.52,89,0,1.27,BR,1615446446
412,abha,18.2164,42.5053,295.15,20,0,5.14,SA,1615446336
413,souillac,-20.5167,57.5167,302.15,58,40,5.66,MU,1615446447
414,hualmay,-11.0964,-77.6139,295.67,71,87,2.87,PE,1615446338
415,ahipara,-35.1667,173.1667,291.06,83,53,3.92,NZ,1615446447
416,baghdad,33.3406,44.4009,292.15,45,75,9.26,IQ,1615446167
417,swedru,5.5371,-0.6998,299.15,73,97,2.06,GH,1615446448
418,wagar,16.1525,36.2032,303.82,40,0,5.16,SD,1615446448
419,vicuna,-30.0319,-70.7081,288.15,100,0,1.03,CL,1615446238
420,tepalcatepec,19.1833,-102.85,293.91,56,0,0.42,MX,1615446448
421,udachnyy,66.4167,112.4,253.53,83,0,6.81,RU,1615446449
422,shamary,57.3434,58.2199,253.7,89,83,3.0,RU,1615446449
423,matagami,49.7502,-77.6328,266.15,100,90,4.63,CA,1615446449
424,karasburg,-28.0167,18.75,291.79,55,0,1.98,NA,1615446450
425,mailsi,29.8003,72.1758,308.42,10,0,6.27,PK,1615446450
426,poum,-20.2333,164.0167,299.29,72,83,5.3,NC,1615446450
427,dalvik,65.9702,-18.5286,273.15,80,90,8.75,IS,1615446451
428,anajatuba,-3.2644,-44.6197,295.83,97,96,0.66,BR,1615446451
429,yagodnoye,62.55,149.6667,253.12,85,99,1.39,RU,1615446451
430,ulaangom,49.9811,92.0667,264.99,94,100,1.62,MN,1615446452
431,faya,18.3851,42.4509,295.15,20,0,5.14,SA,1615446452
432,evensk,61.95,159.2333,249.91,88,90,2.29,RU,1615446452
433,kieta,-6.2167,155.6333,300.71,77,100,1.95,PG,1615446453
434,urumqi,43.801,87.6005,275.15,75,75,2.0,CN,1615446173
435,churapcha,62.0025,132.4325,260.54,92,100,4.64,RU,1615446453
436,santa maria,-29.6842,-53.8069,288.38,94,0,1.4,BR,1615446322
437,los alamos,35.8881,-106.307,276.15,23,1,1.54,US,1615446454
438,longyearbyen,78.2186,15.6401,268.15,93,90,2.06,SJ,1615446454
439,verkhoyansk,67.5447,133.385,257.34,87,100,1.42,RU,1615446454
440,touros,-5.1989,-35.4608,297.15,94,40,2.06,BR,1615446455
441,yulara,-25.2406,130.9889,307.15,36,23,5.66,AU,1615446455
442,kashi,39.4547,75.9797,287.15,18,20,4.0,CN,1615446455
443,aykhal,66.0,111.5,252.9,84,0,9.36,RU,1615446455
444,rockport,28.0206,-97.0544,294.15,94,90,6.17,US,1615446456
445,yeppoon,-23.1333,150.7333,303.15,54,86,4.63,AU,1615446456
446,jumla,29.2747,82.1838,289.65,27,0,2.92,NP,1615446456
447,vestmannaeyjar,63.4427,-20.2734,273.54,87,37,15.12,IS,1615446457
448,dasoguz,41.8363,59.9666,281.15,46,0,3.09,TM,1615446457
449,copiapo,-27.3667,-70.3333,290.15,77,100,3.09,CL,1615446341
450,adiake,5.2863,-3.304,299.15,83,20,1.03,CI,1615446457
451,tilichiki,60.4667,166.1,255.0,93,3,3.09,RU,1615446458
452,nadvoitsy,63.8667,34.3167,257.99,86,0,3.06,RU,1615446458
453,manokwari,-0.8667,134.0833,301.11,77,47,4.14,ID,1615446330
454,saravena,6.9538,-71.8752,296.54,63,91,1.4,CO,1615446459
455,skelleftea,64.7507,20.9528,264.82,86,90,4.63,SE,1615446459
456,buritis,-15.6178,-46.4233,294.36,86,98,0.75,BR,1615446459
457,macau,22.2006,113.5461,297.15,78,20,3.09,MO,1615446460
458,labuan,5.2767,115.2417,303.15,74,20,2.57,MY,1615446460
459,ongandjera,-17.8833,15.0667,299.34,42,0,2.65,NA,1615446460
460,husavik,66.0449,-17.3389,273.15,80,90,8.75,IS,1615446461
461,jawhar,2.7809,45.5005,306.01,39,88,6.22,SO,1615446461
462,portland,45.5234,-122.6762,279.82,77,33,0.45,US,1615445998
463,salym,60.0625,71.4789,253.89,91,100,3.83,RU,1615446461
464,belmonte,-15.8631,-38.8828,296.15,83,0,2.06,BR,1615446462
465,carbonear,47.7332,-53.2148,270.37,93,20,10.29,CA,1615446462
466,maceo,6.552,-74.7874,291.15,96,100,1.35,CO,1615446463
467,uarini,-2.99,-65.1083,294.25,99,100,0.62,BR,1615446463
468,selishche,56.8879,33.2691,258.85,87,0,3.11,RU,1615446463
469,zhigansk,66.7697,123.3711,254.52,90,100,5.42,RU,1615446463
470,brzesko,49.9691,20.6061,272.04,70,100,0.45,PL,1615446464
471,shihezi,44.3,86.0333,273.94,97,100,0.78,CN,1615446464
472,makurdi,7.7411,8.5121,301.12,69,97,3.03,NG,1615446464
473,kautokeino,69.0125,23.0412,260.78,92,100,12.95,NO,1615446465
474,hami,42.8,93.45,291.32,24,100,1.96,CN,1615446465
475,dicabisagan,17.0818,122.4157,298.73,79,49,2.68,PH,1615446465
476,tena,-0.9833,-77.8167,294.19,80,100,0.67,EC,1615446466
477,itaituba,-4.2761,-55.9836,295.29,98,100,0.87,BR,1615446466
478,sao joao da barra,-21.6403,-41.0511,296.02,90,96,3.7,BR,1615446241
479,tornio,65.8481,24.1466,257.15,66,0,5.14,FI,1615446466
480,bima,-8.4667,118.7167,301.72,78,97,0.93,ID,1615446467
481,palauig,15.435,119.9045,302.52,61,92,4.43,PH,1615446467
482,bandundu,-3.3167,17.3667,299.07,80,73,1.34,CD,1615446467
483,tautira,-17.7333,-149.15,301.15,78,40,2.57,PF,1615446468
484,saint-augustin,51.226,-58.6502,271.96,95,100,9.66,CA,1615446468
485,ayagoz,47.9714,80.4392,271.31,97,100,0.54,KZ,1615446468
486,farmington,36.7281,-108.2187,276.15,28,1,3.6,US,1615446352
487,tuensang,26.2833,94.8333,297.93,31,71,1.38,IN,1615446469
488,bath,51.3779,-2.3591,281.48,84,100,2.68,GB,1615446351
489,kloulklubed,7.0419,134.2556,301.15,78,75,2.06,PW,1615446469
490,richmond,37.5538,-77.4603,287.04,46,40,2.57,US,1615445820
491,salinas,36.6777,-121.6555,281.15,81,75,1.73,US,1615446470
492,bafq,31.6128,55.4107,292.16,25,0,2.76,IR,1615446470
493,wasilla,61.5814,-149.4394,269.15,86,90,3.6,US,1615446288
494,pirovskoye,57.6267,92.2658,274.71,86,97,8.66,RU,1615446470
495,pyapon,16.2833,95.6833,310.83,18,0,3.21,MM,1615446471
496,idaho falls,43.4666,-112.0341,269.15,86,1,3.09,US,1615446471
497,camacha,33.0833,-16.3333,288.15,77,75,4.12,PT,1615446471
498,awbari,26.5921,12.7805,293.61,33,100,8.31,LY,1615446472
499,nago,26.5881,127.9761,297.15,64,20,3.6,JP,1615446472
500,maldonado,-34.6667,-54.9167,291.15,88,0,3.09,UY,1615446446
501,ketchikan,55.3422,-131.6461,276.15,80,90,2.29,US,1615446473
502,colares,38.7992,-9.4469,285.93,90,100,2.33,PT,1615446473
503,pangai,-19.8,-174.35,299.15,61,20,3.6,TO,1615446473
504,albion,42.2431,-84.753,289.26,67,90,4.12,US,1615446473
505,mbandaka,0.0487,18.2603,298.32,81,14,1.28,CD,1615446474
506,santa fe,-31.6333,-60.7,296.48,72,52,3.13,AR,1615446474
507,presidencia roque saenz pena,-26.7852,-60.4388,293.15,64,0,1.34,AR,1615446474
508,praia da vitoria,38.7333,-27.0667,286.48,100,90,6.4,PT,1615446475
509,verkhniye kigi,55.4083,58.6044,254.27,90,100,4.72,RU,1615446475
510,miles city,46.4083,-105.8406,270.15,80,1,1.54,US,1615446475
511,puerto lopez,4.0845,-72.956,298.48,57,93,1.03,CO,1615446476
512,aksu,41.1231,80.2644,288.79,30,100,3.1,CN,1615446476
513,bajna,27.9,77.6833,309.76,9,0,0.05,IN,1615446476
514,nioro,13.35,-15.75,293.7,23,89,3.08,GM,1615446477
515,turayf,31.6725,38.6637,293.15,30,0,5.14,SA,1615446477
516,belgrade,44.804,20.4651,275.93,74,0,2.57,RS,1615446425
517,sioux lookout,50.1001,-91.917,267.15,68,90,2.06,CA,1615446477
518,gamba,-2.65,10.0,300.28,82,100,1.81,GA,1615446478
519,dwarka,22.2394,68.9678,300.05,47,0,3.65,IN,1615446478
520,mineiros,-17.5694,-52.5511,291.98,93,100,1.5,BR,1615446478
521,alihe,50.5667,123.7167,275.71,74,0,3.91,CN,1615446470
522,shagonar,51.5333,92.8,269.29,93,99,0.85,RU,1615446481
523,douglas,41.3,-96.167,274.82,80,40,3.6,US,1615446481
524,viedma,-40.8135,-62.9967,289.79,37,1,5.29,AR,1615446481
525,kokopo,-4.352,152.2633,300.45,80,100,2.95,PG,1615446482
526,staryy nadym,65.6118,72.6842,244.43,84,53,2.43,RU,1615446482
527,charyshskoye,51.3978,83.5598,271.61,93,100,3.99,RU,1615446482
528,havre-saint-pierre,50.2334,-63.5986,274.15,75,90,5.66,CA,1615446483
529,harper,4.375,-7.7169,299.38,87,100,2.66,LR,1615446483
530,karpathos,35.507,27.2132,290.15,72,40,8.23,GR,1615446483
531,ascension,30.2169,-90.9001,292.15,82,1,2.06,US,1615446483
532,grindavik,63.8424,-22.4338,270.15,68,75,17.49,IS,1615446484
533,yarensk,62.1675,49.0916,264.35,91,100,4.81,RU,1615446484
534,sisimiut,66.9395,-53.6735,264.57,93,100,2.23,GL,1615446485
535,goderich,43.7501,-81.7165,289.15,44,100,10.8,CA,1615446485
536,george town,5.4112,100.3354,306.15,58,20,4.63,MY,1615446423
537,pacific grove,36.6177,-121.9166,281.48,71,75,3.09,US,1615446201
538,aztec,36.8222,-107.9929,276.15,28,1,3.6,US,1615446485
539,burewala,30.1667,72.65,308.53,10,0,5.73,PK,1615446486
540,nemuro,43.3236,145.575,276.15,52,40,4.12,JP,1615446486
541,ures,29.4333,-110.4,285.37,22,29,0.45,MX,1615446486
542,nishihara,26.1842,127.7558,297.15,56,40,5.66,JP,1615446487
543,olinda,-8.0089,-34.8553,298.15,83,75,2.06,BR,1615446487
544,nur,52.6683,22.3221,271.48,50,88,1.79,PL,1615446487
545,north bend,43.4065,-124.2243,280.15,81,75,2.06,US,1615446377
546,sterling,39.0062,-77.4286,286.48,35,75,4.12,US,1615446312
547,broome,42.2506,-75.833,280.15,65,1,3.6,US,1615446488
548,loandjili,-4.7561,11.8578,301.15,83,40,1.54,CG,1615446488
549,roebourne,-20.7833,117.1333,308.77,41,8,6.75,AU,1615446489
550,namatanai,-3.6667,152.4333,301.56,69,97,2.35,PG,1615446489
551,benguela,-12.5763,13.4055,299.66,80,90,1.07,AO,1615446489
552,mandera,3.9366,41.867,303.9,40,0,4.64,KE,1615446489
553,samarai,-10.6167,150.6667,302.34,72,93,4.69,PG,1615446490
554,betare oya,5.6,14.0833,295.01,83,100,0.74,CM,1615446490
555,jieshi,22.8134,115.8257,298.71,67,4,6.14,CN,1615446490
556,la cruz,23.9167,-106.9,288.15,95,94,1.49,MX,1615446491
557,rodrigues alves,-7.738,-72.6509,293.18,97,97,0.3,BR,1615446491
558,alofi,-19.0595,-169.9187,298.15,73,68,1.03,NU,1615446491
